Lat,Lng,City Name,Country Code,Temp,Humidity,Clouds,Wind,Date
11.330273894731675,118.72265945820618,bacuit,ph,,,,,
-54.8,-68.3,ushuaia,ar,46.4,49.0,75.0,4.7,1601247631.0
64.89,-23.71,olafsvik,is,44.83,83.0,29.0,9.37,1601247631.0
-22.97,-42.03,arraial do cabo,br,77.0,78.0,0.0,13.87,1601247327.0
1.74,98.78,sibolga,id,76.24,71.0,99.0,2.89,1601247632.0
25.93,81.98,bela,pk,78.19,71.0,0.0,1.88,1601247633.0
-33.7,-53.46,chuy,uy,60.3,88.0,76.0,12.03,1601247633.0
-14.37,23.24,lukulu,zm,73.11,27.0,22.0,2.55,1601247633.0
-23.12,-134.97,rikitea,pf,74.46,80.0,0.0,12.64,1601247634.0
51.26,-80.61,moose factory,ca,60.8,87.0,75.0,9.17,1601247634.0
-9.67,-35.74,maceio,br,77.0,83.0,40.0,5.82,1601247389.0
23.15,-81.25,varadero,cu,84.2,79.0,20.0,9.17,1601247635.0
-53.15,-70.92,punta arenas,cl,50.0,61.0,40.0,32.21,1601247635.0
23.38,-105.38,pueblo nuevo,mx,70.21,85.0,12.0,4.43,1601247635.0
-20.16843453716578,168.162494454671,we,nc,,,,,
46.42,3.91,saint-francois,gp,51.01,100.0,90.0,9.17,1601247636.0
35.13,140.3,katsuura,jp,71.01,77.0,20.0,11.41,1601247636.0
42.6,-73.97,albany,au,75.0,73.0,21.0,4.74,1601247637.0
42.16,-72.33,palmer,us,77.0,65.0,75.0,4.7,1601247637.0
69.45,-133.04,tuktoyaktuk,ca,37.4,93.0,90.0,4.7,1601247637.0
46.68,113.28,baruun-urt,mn,39.07,71.0,99.0,7.99,1601247638.0
52.06,-2.71,hereford,gb,44.01,87.0,54.0,3.09,1601247546.0
-33.93,18.42,cape town,za,48.2,76.0,0.0,2.24,1601247368.0
17.02,54.09,salalah,om,78.8,78.0,75.0,3.36,1601247639.0
-42.78,147.06,new norfolk,au,54.0,70.0,75.0,3.0,1601247639.0
-9.8,-139.03,atuona,pf,78.33,75.0,1.0,13.56,1601247639.0
-32.03,-52.1,rio grande,br,68.0,90.0,100.0,1.01,1601247615.0
29.03,21.55,jalu,ly,86.97,24.0,0.0,8.5,1601247640.0
-34.42,19.23,hermanus,za,44.01,91.0,1.0,5.23,1601247640.0
50.08,132.17,tyrma,ru,52.72,89.0,91.0,1.68,1601247641.0
46.69,47.85,narimanov,ru,53.01,71.0,0.0,13.42,1601247641.0
41.43,27.09,babaeski,tr,65.26,55.0,18.0,3.4,1601247641.0
-46.6,168.33,bluff,nz,37.99,96.0,100.0,1.01,1601247642.0
71.92,114.08,saskylakh,ru,36.18,93.0,100.0,21.7,1601247642.0
14.76,-90.99,tecpan,mx,77.0,65.0,20.0,13.87,1601247643.0
41.32,61.07,hazorasp,uz,50.0,46.0,77.0,9.17,1601247643.0
-28.77,114.6,geraldton,au,50.0,87.0,7.0,10.29,1601247643.0
42.98,144.37,kushiro,jp,55.4,71.0,40.0,11.41,1601247644.0
4.93,-52.33,cayenne,gf,82.4,78.0,1.0,6.93,1601247644.0
-2.02,147.27,lorengau,pg,82.62,79.0,94.0,6.46,1601247645.0
-25.24,130.99,yulara,au,73.4,18.0,38.0,4.7,1601247645.0
-33.65,115.33,busselton,au,55.99,91.0,60.0,9.55,1601247646.0
-12.23,136.77,nhulunbuy,au,82.4,74.0,81.0,11.41,1601247646.0
65.58,-171,lavrentiya,ru,36.73,79.0,58.0,15.99,1601247646.0
51.03,90.23,teeli,ru,31.3,92.0,17.0,0.69,1601247647.0
56.23542978633543,-84.05422556550432,attawapiskat,ca,,,,,
-0.6,73.08,hithadhoo,mv,82.67,68.0,99.0,6.13,1601247647.0
83.45525633586729,49.2307152501036,belushya guba,ru,,,,,
69.22,-51.1,ilulissat,gl,30.2,80.0,6.0,2.24,1601247648.0
29.11,21.29,awjilah,ly,87.28,27.0,0.0,8.77,1601247648.0
65.97,78.37,urengoy,ru,39.34,71.0,86.0,19.44,1601247649.0
11.28,49.18,bosaso,so,85.12,68.0,30.0,5.53,1601247649.0
47.67,-52.73,torbay,ca,64.0,93.0,90.0,21.92,1601247649.0
56.91,118.26,chara,ru,37.81,77.0,66.0,5.82,1601247650.0
22.68,-3.98,taoudenni,ml,96.12,9.0,0.0,9.69,1601247650.0
29.02,66.59,kalat,pk,56.34,33.0,0.0,0.4,1601247651.0
-0.74,-90.35,puerto ayora,ec,69.01,86.0,80.0,11.01,1601247651.0
-17.71,-39.25,caravelas,br,73.24,81.0,0.0,7.92,1601247651.0
14.92,-23.51,praia,cv,80.6,83.0,75.0,4.7,1601247652.0
19.73,-155.09,hilo,us,86.0,51.0,1.0,8.05,1601247652.0
71.69,128.87,tiksi,ru,40.3,90.0,86.0,7.63,1601247652.0
-8.14,159.59,buala,sb,79.54,82.0,100.0,7.16,1601247653.0
50.17,8.57,steinbach,ca,55.0,93.0,75.0,3.36,1601247653.0
-33.59,26.89,port alfred,za,53.92,67.0,37.0,7.94,1601247654.0
-20.74,116.85,karratha,au,69.82,35.0,13.0,11.81,1601247654.0
72.79,-56.15,upernavik,gl,29.12,94.0,100.0,7.16,1601247655.0
6.3,-10.8,monrovia,lr,77.52,87.0,100.0,6.96,1601247655.0
57.79,-152.41,kodiak,us,48.2,81.0,90.0,16.11,1601247379.0
-59.50663322566368,53.882676692080395,taolanaro,mg,,,,,
17.49,44.13,najran,sa,73.4,26.0,10.0,2.08,1601247656.0
48.01,91.64,hovd,mn,37.24,75.0,97.0,1.63,1601247656.0
-45.42,167.72,te anau,nz,37.99,83.0,80.0,5.97,1601247397.0
35.87,47.61,bijar,ir,47.08,82.0,0.0,3.38,1601247656.0
30.33,10.85,nalut,ly,76.77,22.0,90.0,10.96,1601247657.0
71.29,-156.79,barrow,us,32.0,95.0,90.0,12.75,1601247657.0
-4.775567266993349,-162.3051911244912,samusu,ws,,,,,
-25.17,45.05,beloha,mg,67.1,88.0,0.0,5.64,1601247658.0
-37.62,-73.65,lebu,cl,50.41,84.0,6.0,12.95,1601247658.0
50.23,136.9,amursk,ru,50.29,82.0,80.0,13.62,1601247659.0
68.82,-51.19,qasigiannguit,gl,30.2,80.0,32.0,2.24,1601247659.0
-27.8,-64.26,santiago del estero,ar,70.29,25.0,0.0,8.93,1601247659.0
54.19,16.17,koszalin,pl,48.0,99.0,100.0,12.19,1601247660.0
30.17,-111.1,benjamin hill,mx,100.99,43.0,0.0,5.01,1601247660.0
60.14,-45.24,nanortalik,gl,36.79,82.0,19.0,15.1,1601247661.0
61.99,-49.67,paamiut,gl,37.63,78.0,14.0,20.13,1601247661.0
-38,-57.56,mar del plata,ar,54.0,93.0,90.0,9.17,1601247460.0
-21.2,-175.2,vaini,to,78.8,74.0,20.0,5.82,1601247662.0
22.08,-159.32,kapaa,us,86.0,62.0,40.0,11.41,1601247663.0
47.43,-72.78,la tuque,ca,67.41,80.0,100.0,9.01,1601247663.0
72.82249610007645,135.92176130923195,nizhneyansk,ru,,,,,
37.1,-113.58,saint george,bm,90.0,18.0,1.0,3.36,1601247420.0
43.75,-81.72,goderich,sl,75.0,42.0,86.0,4.0,1601247664.0
73.51,80.55,dikson,ru,36.91,79.0,100.0,26.37,1601247664.0
-46.19,168.86,mataura,pf,37.99,96.0,100.0,1.01,1601247665.0
31.75,54.21,taft,ir,75.2,17.0,40.0,4.7,1601247665.0
-33.02,27.91,east london,za,56.66,60.0,75.0,4.63,1601247665.0
-20.34,57.76,bambous virieux,mu,72.0,88.0,40.0,8.05,1601247666.0
59.57,7.99,amot,no,52.0,92.0,42.0,3.33,1601247666.0
71.97,102.5,khatanga,ru,28.96,97.0,96.0,9.66,1601247667.0
-10.07,-78.15,huarmey,pe,63.84,79.0,6.0,8.01,1601247667.0
57.05,-135.33,sitka,us,55.4,76.0,90.0,25.28,1601247667.0
28.68,115.88,nanchang,cn,65.68,88.0,94.0,2.3,1601247668.0
-20.52,57.52,souillac,mu,69.8,88.0,40.0,8.05,1601247668.0
-12.58,13.41,benguela,ao,70.68,79.0,43.0,4.61,1601247668.0
25.52,90.22,tura,ru,72.41,97.0,100.0,3.76,1601247669.0
44.53,125.7,dehui,cn,57.2,82.0,40.0,6.71,1601247669.0
-34.53,20.04,bredasdorp,za,48.2,81.0,0.0,4.7,1601247669.0
-35.33,-72.42,constitucion,mx,52.99,79.0,0.0,12.26,1601247670.0
50.68,36.55,severnyy,ru,62.6,36.0,100.0,15.66,1601247670.0
10.28,22.79,birao,cf,71.69,94.0,99.0,3.69,1601247670.0
38.39338745824668,72.88859069970027,karakendzha,tj,,,,,
70.47,-68.59,clyde river,ca,28.4,86.0,90.0,3.36,1601247671.0
40.56,8.32,alghero,it,57.2,87.0,100.0,9.17,1601247642.0
45.52,-122.68,portland,au,73.99,49.0,20.0,10.29,1601247533.0
37.73,-25.67,ponta delgada,pt,69.8,88.0,40.0,6.93,1601247672.0
5.41,100.34,georgetown,sh,78.8,94.0,20.0,2.24,1601247672.0
3.1,98.49,kabanjahe,id,62.35,82.0,100.0,2.84,1601247673.0
31.21,16.59,surt,ly,79.75,62.0,7.0,9.91,1601247673.0
4.42,-7.35,tabou,ci,76.59,88.0,42.0,6.24,1601247673.0
42.1,-79.24,jamestown,sh,73.99,64.0,40.0,11.41,1601247674.0
-15.2,12.15,namibe,ao,63.21,87.0,82.0,4.05,1601247674.0
-34.48,-54.33,rocha,uy,58.51,90.0,72.0,10.96,1601247674.0
-35.17,173.17,ahipara,nz,59.32,59.0,9.0,14.25,1601247675.0
65.61,-37.64,tasiilaq,gl,35.6,94.0,99.0,8.05,1601247675.0
17.58692585527797,38.987563354223,tawkar,sd,,,,,
-33.04,-71.63,valparaiso,cl,62.6,63.0,0.0,6.93,1601247676.0
-8.93,125.41,airai,pw,66.45,60.0,39.0,4.23,1601247676.0
52.44,61.74,ordzhonikidze,ua,49.23,62.0,26.0,5.48,1601247677.0
50.7,-127.42,port hardy,ca,55.4,82.0,90.0,17.22,1601247677.0
-22.67,167.48,vao,nc,70.86,86.0,78.0,20.6,1601247677.0
44.65,-63.57,halifax,ca,66.99,97.0,52.0,3.0,1601247447.0
51.272154462766906,-85.83627169220468,longlac,ca,,,,,
-8.84,13.23,luanda,ao,73.4,88.0,40.0,5.82,1601247458.0
38.52,-28.7,ribeira grande,pt,69.8,83.0,40.0,5.82,1601247678.0
35.61,-77.37,greenville,us,72.0,83.0,90.0,2.84,1601247540.0
77.93318249635047,-179.40568760952155,mys shmidta,ru,,,,,
-7.91,39.21,mbumi,tz,73.04,94.0,21.0,3.36,1601247679.0
-31.95,141.43,broken hill,au,55.4,54.0,0.0,13.87,1601247679.0
60.72,-46.03,qaqortoq,gl,39.2,55.0,0.0,2.24,1601247680.0
12.06,-61.75,saint-georges,gf,80.6,88.0,75.0,9.17,1601247680.0
38.53,-28.63,horta,pt,69.8,83.0,40.0,5.82,1601247680.0
18.42,-64.62,road town,vg,82.4,74.0,90.0,5.82,1601247615.0
-0.73,119.89,liku,wf,77.32,79.0,97.0,2.17,1601247681.0
-9.79,29.08,kawambwa,zm,66.29,68.0,68.0,4.34,1601247681.0
27.98,-114.06,guerrero negro,mx,80.26,47.0,0.0,12.53,1601247682.0
41.37,-73.41,bethel,us,73.4,78.0,75.0,6.93,1601247682.0
27.04,14.43,sabha,ly,85.8,14.0,0.0,9.24,1601247682.0
36.93160511394335,65.44655005535907,shibarghan,af,,,,,
-21.35,165.15,poya,nc,78.78,67.0,56.0,10.25,1601247683.0
44.58,129.42,hailin,cn,54.79,83.0,57.0,4.29,1601247683.0
13.22,-59.52,bathsheba,bb,82.4,83.0,20.0,9.17,1601247684.0
58.86,60.81,verkhoturye,ru,45.01,91.0,29.0,3.18,1601247684.0
64.57,143.2,ust-nera,ru,45.09,59.0,99.0,5.26,1601247685.0
3.07,172.79,butaritari,ki,82.8,77.0,98.0,15.7,1601247685.0
32.21047064799612,161.8025690643936,sentyabrskiy,ru,,,,,
19.38,74.65,rahuri,in,71.64,87.0,100.0,4.41,1601247686.0
-20.21,57.76,quatre cocos,mu,72.0,88.0,40.0,8.05,1601247686.0
-2.92,-39.92,itarema,br,77.68,79.0,12.0,14.81,1601247686.0
42.25,-75.83,broome,au,72.0,68.0,20.0,9.17,1601247687.0
39.18,-84.53,hamilton,bm,77.0,57.0,20.0,8.05,1601247687.0
-14.66,17.69,menongue,ao,67.39,31.0,83.0,2.77,1601247688.0
51.59,-3,newport,us,48.0,85.0,59.0,3.78,1601247576.0
8.41,20.65,ndele,cf,69.87,90.0,88.0,1.25,1601247688.0
30.48,-115.95,san quintin,mx,73.49,65.0,0.0,7.76,1601247688.0
6.88,73.1,dhidhdhoo,mv,81.46,77.0,0.0,6.8,1601247524.0
-27.18,151.27,dalby,au,62.6,51.0,0.0,17.22,1601247689.0
-34,24.73,kruisfontein,za,45.0,82.0,2.0,6.46,1601247689.0
59.38,143.3,okhotsk,ru,50.2,82.0,98.0,12.75,1601247690.0
41.17,-74.05,rockland,us,75.99,84.0,62.0,5.14,1601247690.0
62.46,-114.35,yellowknife,ca,46.4,87.0,75.0,11.41,1601247605.0
-8.19,15.38,camabatela,ao,62.73,90.0,73.0,4.79,1601247691.0
-5.25,39.77,chake chake,tz,74.89,90.0,1.0,5.12,1601247691.0
54.63,43.21,temnikov,ru,48.2,57.0,22.0,7.27,1601247691.0
32.67,-17.1,ponta do sol,cv,71.6,68.0,40.0,11.41,1601247692.0
67.68,53.15,iskateley,ru,36.36,84.0,50.0,5.17,1601247692.0
43.21,-75.46,roma,au,78.8,54.0,1.0,9.17,1601247495.0
32.35,-85.2,russell,nz,78.8,69.0,40.0,11.41,1601247605.0
7.53,-12.51,bonthe,sl,77.54,89.0,100.0,5.79,1601247693.0
47.1,-56.38,miquelon,pm,59.32,92.0,83.0,17.45,1601247693.0
29.07,31.1,beni suef,eg,79.43,45.0,0.0,13.58,1601247694.0
-24.79,-50.01,castro,cl,66.2,85.0,98.0,10.92,1601247648.0
-24.85,152.35,bundaberg,au,68.0,52.0,0.0,10.29,1601247694.0
66.32,-179.17,egvekinot,ru,31.53,85.0,0.0,1.86,1601247695.0
51.47,140.78,de-kastri,ru,54.34,74.0,0.0,5.79,1601247695.0
54.11,102.16,sayansk,ru,38.17,95.0,94.0,5.75,1601247696.0
34.06,-117.18,redlands,us,93.99,26.0,40.0,6.93,1601247696.0
68.75,161.3,cherskiy,ru,40.41,68.0,100.0,19.04,1601247696.0
40.43,71.72,komsomolskiy,ru,55.4,35.0,48.0,4.7,1601247697.0
11.28,-15.83,bubaque,gw,81.27,77.0,91.0,8.57,1601247697.0
-16.48,-151.75,faanui,pf,78.44,79.0,2.0,12.91,1601247697.0
51.16,82.19,zmeinogorsk,ru,34.88,94.0,16.0,6.08,1601247698.0
78.22,15.64,longyearbyen,sj,33.8,90.0,75.0,18.34,1601247698.0
70.63,147.92,chokurdakh,ru,41.4,92.0,98.0,4.59,1601247699.0
-5.2,-35.46,touros,br,77.0,88.0,20.0,8.05,1601247699.0
15.85,-97.07,puerto escondido,mx,84.2,70.0,90.0,6.93,1601247699.0
77.48,-69.36,qaanaaq,gl,13.06,76.0,5.0,6.53,1601247700.0
-42.88,147.33,hobart,au,54.0,57.0,75.0,10.29,1601247679.0
29.85,80.53,dharchula,in,60.42,49.0,0.0,3.71,1601247700.0
50.68,156.12,severo-kurilsk,ru,46.56,88.0,100.0,35.54,1601247701.0
71.04,27.85,mehamn,no,39.81,73.0,84.0,12.33,1601247701.0
-28.57,-70.76,vallenar,cl,61.95,42.0,0.0,2.21,1601247701.0
25.7,100.18,dali,cn,62.53,87.0,83.0,2.95,1601247702.0
39.92,44.05,igdir,tr,71.6,35.0,3.0,11.41,1601247702.0
34.17,77.58,leh,in,40.55,58.0,0.0,3.69,1601247703.0
11,122.67,dingle,ie,79.77,84.0,38.0,2.15,1601247703.0
42.54,129,helong,cn,57.4,70.0,31.0,4.85,1601247704.0
5.11,7.37,aba,hu,75.2,94.0,40.0,2.98,1601247704.0
64.25,-15.21,hofn,is,49.01,91.0,100.0,12.91,1601247704.0
18.39,42.45,faya,td,68.0,20.0,0.0,4.65,1601247705.0
54.63,-8.45,killybegs,ie,57.0,95.0,100.0,5.99,1601247705.0
-0.41,-65.02,santa isabel do rio negro,br,80.96,71.0,57.0,1.45,1601247705.0
69.7,170.31,pevek,ru,34.97,84.0,100.0,25.01,1601247706.0
46.62,10.7,lasa,cn,42.01,6.0,5.0,3.36,1601247706.0
73.24004760640298,57.50838858732806,amderma,ru,,,,,
17.78,-94.63,hidalgotitlan,mx,91.4,59.0,75.0,2.59,1601247707.0
-6.09,-35.21,nisia floresta,br,78.8,78.0,40.0,10.29,1601247707.0
-33.92,25.57,port elizabeth,za,50.0,81.0,40.0,3.36,1601247708.0
-41.87,-73.82,ancud,cl,51.01,88.0,100.0,1.01,1601247708.0
14.05,124.17,pandan,ph,82.26,79.0,38.0,3.13,1601247708.0
45.37,44.22,arzgir,ru,58.33,60.0,76.0,14.29,1601247709.0
-24.87,113.63,carnarvon,au,64.4,82.0,40.0,10.29,1601247709.0
29.28,48,hawalli,kw,93.2,26.0,5.0,18.34,1601247710.0
69.38,178.42,leningradskiy,ru,31.75,91.0,28.0,8.66,1601247710.0
24.14,67.45,keti bandar,pk,80.98,76.0,18.0,11.88,1601247710.0
-13.7,-76.22,pisco,pe,68.0,64.0,2.0,16.11,1601247711.0
-1.57,9.26,omboue,ga,74.55,78.0,30.0,6.76,1601247711.0
-5.13,-49.33,itupiranga,br,80.6,83.0,59.0,0.63,1601247711.0
-26.65,15.16,luderitz,na,53.51,66.0,0.0,16.46,1601247712.0
20.2,1.01,tessalit,ml,85.66,13.0,0.0,2.26,1601247712.0
-30.18,-50.21,cidreira,br,65.77,93.0,97.0,14.05,1601247712.0
-3.8,102.27,bengkulu,id,75.9,85.0,93.0,7.18,1601247713.0
20.52,-13.05,atar,mr,91.31,22.0,0.0,8.43,1601247713.0
-2.01,-54.07,monte alegre,br,83.1,61.0,100.0,1.86,1601247714.0
61.68,64.48,kommunisticheskiy,ru,50.74,94.0,97.0,4.38,1601247714.0
66.04,-17.34,husavik,is,42.8,100.0,75.0,8.68,1601247714.0
29.56,34.95,elat,il,84.2,48.0,0.0,16.11,1601247693.0
62.23,-6.59,klaksvik,fo,46.4,100.0,100.0,12.75,1601247715.0
10.57,72.64,kavaratti,in,80.85,80.0,62.0,9.6,1601247715.0
0.6,-80.03,muisne,ec,80.6,83.0,75.0,10.29,1601247716.0
49.81,129.81,bureya,ru,49.75,84.0,33.0,7.47,1601247716.0
-46.28,169.85,kaitangata,nz,37.0,79.0,90.0,8.01,1601247716.0
43.93,141.64,rumoi,jp,54.43,74.0,73.0,12.37,1601247717.0
53.45,108.98,ust-barguzin,ru,43.59,73.0,54.0,12.01,1601247717.0
-32.89,-60.69,alberdi,py,62.6,59.0,20.0,13.87,1601247718.0
70.86,29.09,berlevag,no,41.79,76.0,70.0,16.87,1601247718.0
22.86,115.7,jinxiang,cn,78.01,83.0,100.0,1.01,1601247719.0
4.92,29.47,maridi,sd,67.14,94.0,52.0,1.3,1601247719.0
62.63518987378981,-9.822509929158457,sorvag,fo,,,,,
-2.67,141.3,vanimo,pg,84.83,63.0,40.0,3.89,1601247719.0
-33.41,-56.5,durazno,uy,53.67,91.0,22.0,11.45,1601247720.0
38.42,-121.42,laguna,br,95.0,17.0,1.0,6.93,1601247720.0
-14.25,129.55,port keats,au,83.91,45.0,80.0,7.76,1601247720.0
69.41,86.18,dudinka,ru,32.0,91.0,75.0,17.9,1601247721.0
29.57,-104.42,ojinaga,mx,100.4,10.0,1.0,11.41,1601247721.0
58.87546489896215,-110.40824107847367,grand centre,ca,,,,,
12.22,125.48,alugan,ph,83.25,74.0,33.0,3.94,1601247722.0
-34.05,23.37,plettenberg bay,za,50.22,73.0,1.0,5.53,1601247722.0
59.18,61.86,sosva,ru,45.52,93.0,32.0,4.0,1601247723.0
29.65,-82.32,gainesville,us,75.99,94.0,90.0,11.41,1601247723.0
-29.15,-59.65,reconquista,ar,62.56,65.0,30.0,7.27,1601247723.0
-27.2,153.03,deception bay,au,68.0,54.0,12.0,7.0,1601247724.0
65.46,12.2,bronnoysund,no,57.2,71.0,35.0,11.41,1601247724.0
60.9,131.96,amga,ru,45.84,75.0,98.0,5.23,1601247724.0
66.08,76.63,novyy urengoy,ru,38.05,76.0,72.0,16.4,1601247725.0
-2.53,112.95,sampit,id,74.19,95.0,100.0,1.59,1601247725.0
4.14,96.13,meulaboh,id,75.79,88.0,100.0,4.45,1601247726.0
-34.73,135.87,port lincoln,au,58.64,69.0,84.0,20.4,1601247464.0
-14.83,-64.9,trinidad,bo,93.2,52.0,20.0,4.16,1601247713.0
-34.58,150.86,flinders,au,57.99,66.0,1.0,4.0,1601247470.0
41.96,42.96,khani,ru,64.4,77.0,0.0,2.24,1601247726.0
64.86,-147.8,college,us,57.2,47.0,75.0,12.75,1601247727.0
60.73,77.59,strezhevoy,ru,48.2,93.0,100.0,4.47,1601247727.0
-32.5,137.77,port augusta,au,59.0,51.0,75.0,8.05,1601247727.0
-15.77,128.73,kununurra,au,80.6,83.0,90.0,1.12,1601247654.0
22.79,100.97,simao,cn,64.17,95.0,97.0,1.7,1601247728.0
6.12,81.12,hambantota,lk,79.66,81.0,12.0,13.65,1601247728.0
49.03,131.98,londoko,ru,50.99,87.0,100.0,1.39,1601247729.0
18.69,12.92,bilma,ne,89.65,15.0,100.0,3.91,1601247729.0
-5.22,145.8,madang,pg,84.61,69.0,86.0,3.27,1601247729.0
67.14203773743628,-26.691159179407805,bolungarvik,is,,,,,
48.04,40.05,almaznyy,ru,60.8,59.0,20.0,22.37,1601247730.0
63.75,-68.51,iqaluit,ca,30.2,74.0,20.0,6.93,1601247730.0
2.77,27.62,isiro,cd,67.01,99.0,100.0,2.28,1601247731.0
40.8,-124.16,eureka,us,82.99,65.0,0.0,5.99,1601247731.0
-0.22,20.87,boende,cd,71.33,96.0,97.0,1.34,1601247731.0
50.15,48.57,aleksandrov gay,ru,52.34,44.0,35.0,7.65,1601247732.0
63.86,57.31,vuktyl,ru,46.81,81.0,100.0,7.72,1601247732.0
8.6,124.47,moog,ph,75.0,92.0,76.0,8.99,1601247733.0
-19.98,57.61,cap malheureux,mu,72.0,77.0,76.0,4.0,1601247733.0
-38.27,141.97,codrington,ag,48.16,74.0,0.0,7.83,1601247733.0
-20.41,57.7,mahebourg,mu,69.8,88.0,40.0,8.05,1601247666.0
-14.47,132.27,katherine,au,82.4,39.0,58.0,8.05,1601247734.0
36.21,-115.98,pahrump,us,97.0,14.0,0.0,1.99,1601247735.0
41.76,86.15,korla,cn,57.09,36.0,2.0,11.1,1601247604.0
3.4668878200314595,-172.9569637325375,saleaula,ws,,,,,
76.52226732105538,14.378569358124196,barentsburg,sj,,,,,
-29.95,-71.34,coquimbo,cl,57.2,76.0,0.0,5.82,1601247736.0
64.68,24.48,raahe,fi,52.0,93.0,75.0,5.82,1601247736.0
32.78,130.37,shimabara,jp,66.2,72.0,40.0,11.41,1601247736.0
22.57,59.53,sur,om,82.04,58.0,0.0,9.93,1601247737.0
6.02,10,mbengwi,cm,62.67,94.0,83.0,3.0,1601247737.0
-28.55,16.43,oranjemund,na,53.8,76.0,0.0,4.81,1601247738.0
-8.75,-67.4,boca do acre,br,77.58,77.0,54.0,2.84,1601247738.0
-11.3,35.03,tingi,tz,66.2,65.0,67.0,5.01,1601247738.0
-28.78,32.04,richards bay,za,60.49,92.0,100.0,13.35,1601247739.0
-3.02,16.9,mushie,cd,73.85,90.0,91.0,3.85,1601247739.0
-37.83,140.77,mount gambier,au,42.8,87.0,0.0,8.05,1601247739.0
10.37,10.73,bara,sd,75.15,84.0,92.0,11.79,1601247740.0
69.49,88.4,talnakh,ru,32.0,93.0,75.0,17.9,1601247740.0
-31.47,19.78,calvinia,za,41.22,70.0,0.0,1.95,1601247740.0
0.53,72.93,thinadhoo,mv,83.03,64.0,100.0,1.3,1601247741.0
65.75,150.85,zyryanka,ru,47.03,53.0,0.0,17.25,1601247741.0
66,111.5,aykhal,ru,28.4,92.0,75.0,8.95,1601247742.0
64.38,-173.3,provideniya,ru,39.2,64.0,75.0,13.42,1601247742.0
36.9,-104.44,raton,us,69.8,26.0,1.0,14.99,1601247742.0
28.4,-97.75,beeville,us,91.99,65.0,0.0,8.99,1601247681.0
-10.45,161.92,kirakira,sb,83.7,72.0,66.0,11.14,1601247743.0
28.37,129.48,naze,jp,77.0,83.0,75.0,20.8,1601247743.0
55.62,-3.52,biggar,ca,43.0,100.0,98.0,1.12,1601247582.0
33.73,135.98,shingu,jp,69.8,56.0,20.0,10.29,1601247744.0
-23.7,133.88,alice springs,au,75.0,15.0,14.0,9.66,1601247590.0
-25.45224693100809,74.77193156995773,grand river south east,mu,,,,,
34.34,132.59,kumano,jp,68.0,77.0,20.0,12.75,1601247745.0
50.72,136.63,solnechnyy,ru,50.09,77.0,95.0,6.15,1601247745.0
-21.761183569956827,-82.98165266794075,marcona,pe,,,,,
-0.95,122.79,luwuk,id,78.58,74.0,74.0,6.6,1601247746.0
7.77,-72.22,san cristobal,ec,87.8,55.0,40.0,6.93,1601247746.0
48.63,142.8,makarov,ru,49.15,70.0,100.0,5.1,1601247746.0
-0.95,100.35,padang,id,77.49,72.0,100.0,2.62,1601247747.0
62.53,155.8,omsukchan,ru,43.57,60.0,0.0,8.84,1601247747.0
70.51078637755148,-21.1907624196794,illoqqortoormiut,gl,,,,,
35.73,140.83,hasaki,jp,66.0,100.0,75.0,6.93,1601247748.0
-45.58,-72.07,coihaique,cl,51.8,57.0,75.0,5.82,1601247748.0
77.86205900183546,38.69471802413429,tumannyy,ru,,,,,
51.03,-4.22,northam,au,54.0,89.0,48.0,1.99,1601247748.0
55.12,26.83,pastavy,by,54.55,90.0,98.0,9.57,1601247749.0
-21.36,55.77,saint-philippe,re,69.8,68.0,94.0,5.82,1601247749.0
13.59,-89.83,acajutla,sv,82.4,65.0,40.0,4.7,1601247750.0
43.77,11.25,florence,us,54.0,93.0,90.0,3.36,1601247685.0
64.93118971916556,163.5716998787051,kamenskoye,ru,,,,,
-9.410156345850822,131.78249206650264,nguiu,au,,,,,
64.84,-147.72,fairbanks,us,57.2,50.0,1.0,14.99,1601247724.0
48.91,37.02,barvinkove,ua,63.77,61.0,80.0,12.84,1601247751.0
46.2,1.5,semme,sn,48.99,100.0,90.0,10.29,1601247751.0
50.6,97.52,kungurtug,ru,26.69,90.0,0.0,0.56,1601247751.0
15.52,73.76,candolim,in,76.62,90.0,10.0,5.39,1601247752.0
12.22,4.38,jega,ng,79.34,72.0,59.0,8.9,1601247752.0
9.33,-82.25,bocas del toro,pa,66.0,72.0,88.0,1.01,1601247753.0
-17.53,-149.33,tiarei,pf,84.2,66.0,75.0,14.99,1601247753.0
42.03,-8.16,vila,vu,50.0,82.0,0.0,5.06,1601247754.0
-15.53,167.17,luganville,vu,82.4,74.0,40.0,2.24,1601247534.0
34.93,43.49,bayji,iq,78.24,28.0,0.0,7.34,1601247754.0
25.9,-97.5,brownsville,us,91.4,62.0,1.0,18.34,1601247536.0
14.3,-91.92,champerico,gt,75.2,100.0,90.0,4.7,1601247755.0
-33.87,121.9,esperance,au,51.8,100.0,40.0,8.05,1601247755.0
37.46,-122.43,half moon bay,us,91.99,36.0,1.0,17.22,1601247756.0
49.03,-119.45,osoyoos,ca,68.0,32.0,20.0,4.18,1601247756.0
2.43,103.84,mersing,my,75.2,94.0,99.0,4.7,1601247756.0
3.87,-67.92,inirida,co,76.8,92.0,98.0,0.78,1601247757.0
55.3,-123.17,mackenzie,ca,42.8,93.0,90.0,10.29,1601247605.0
-10.75,-76.3,tinyahuarco,pe,42.46,81.0,68.0,2.73,1601247757.0
5.97,80.42,weligama,lk,78.26,86.0,27.0,7.27,1601247757.0
-48.716275782703974,47.45646932631351,tsihombe,mg,,,,,
64.43,76.5,gubkinskiy,ru,39.24,74.0,98.0,15.39,1601247758.0
17.42,121.44,tabuk,sa,77.23,85.0,100.0,1.86,1601247758.0
63.05,179.32,beringovskiy,ru,36.95,75.0,0.0,8.23,1601247759.0
48.93,-125.55,ucluelet,ca,60.01,77.0,90.0,8.05,1601247621.0
20,-3,tombouctou,ml,95.25,10.0,0.0,7.4,1601247759.0
64.27,24.8,oulainen,fi,50.0,95.0,100.0,1.01,1601247760.0
62.1,126.7,berdigestyakh,ru,44.11,90.0,100.0,8.46,1601247760.0
50.28,57.21,aqtobe,kz,35.6,59.0,0.0,0.98,1601247760.0
-13.2,49.05,ambilobe,mg,66.7,88.0,8.0,4.16,1601247761.0
6.357015755779187,30.286245744730905,yirol,sd,,,,,
-14.1,-46.63,iaciara,br,81.14,22.0,0.0,2.75,1601247761.0
65.53,13.41,trofors,no,57.2,71.0,84.0,11.41,1601247762.0
-1.45,-45.72,candido mendes,br,76.51,85.0,6.0,5.21,1601247762.0
-2.27,40.9,lamu,ke,76.26,89.0,78.0,6.87,1601247762.0
48.14,-80.04,kirkland lake,ca,66.2,77.0,90.0,10.29,1601247763.0
32.77,-108.28,silver city,us,87.8,12.0,1.0,17.22,1601247763.0
-21.53,21.93,dekar,bw,62.94,24.0,0.0,11.7,1601247764.0
-41.41,175.52,waipawa,nz,55.4,47.0,1.0,21.92,1601247764.0
22.29,114.16,victoria,sc,80.01,86.0,100.0,4.0,1601247654.0
22.24,68.97,dwarka,in,80.98,70.0,1.0,8.93,1601247764.0
38.36,-98.76,great bend,us,64.4,39.0,75.0,21.92,1601247765.0
22.69,58.53,ibra,om,74.79,62.0,20.0,2.39,1601247765.0
39.74,98.52,jiuquan,cn,52.9,39.0,96.0,2.21,1601247548.0
55.63,34.28,novodugino,ru,52.11,59.0,100.0,9.37,1601247766.0
-7.3,27.42,manono,cd,74.41,76.0,98.0,3.0,1601247728.0
10.55,119.99,araceli,ph,84.02,73.0,40.0,5.64,1601247766.0
20.5,-10.07,adrar,dz,92.19,17.0,0.0,12.73,1601247767.0
45.32,55.2,beyneu,kz,49.96,50.0,0.0,10.22,1601247767.0
-21.21,-159.78,avarua,ck,75.2,69.0,45.0,13.87,1601247767.0
20.15,92.9,akyab,mm,79.61,90.0,80.0,8.99,1601247768.0
37.5,61.97,murgab,tm,53.6,41.0,26.0,2.24,1601247768.0
59.7,30.79,nikolskoye,ru,55.0,76.0,1.0,8.95,1601247769.0
3.23,10.73,lolodorf,cm,68.11,97.0,92.0,3.44,1601247769.0
31.61,34.76,gat,ly,79.0,77.0,0.0,8.3,1601247769.0
49.75,-77.63,matagami,ca,62.6,93.0,90.0,9.17,1601247770.0
46.52,-84.33,sault sainte marie,ca,62.6,82.0,90.0,8.05,1601247770.0
63.83,20.26,umea,se,46.99,100.0,100.0,5.82,1601247633.0
20.89,-156.47,kahului,us,91.4,43.0,20.0,20.8,1601247771.0
37.72,-25.43,vila franca do campo,pt,69.8,88.0,40.0,6.93,1601247771.0
41.37,-81.85,berea,us,75.2,57.0,1.0,16.11,1601247571.0
38.42,77.24,shache,cn,57.13,35.0,84.0,5.01,1601247772.0
14.38,75.1,sorab,in,68.05,97.0,64.0,3.78,1601247772.0
-29.66,17.89,springbok,za,39.18,77.0,0.0,2.55,1601247772.0
67.45,153.68,srednekolymsk,ru,45.95,55.0,95.0,12.06,1601247773.0
51.66,103.71,slyudyanka,ru,38.48,77.0,48.0,2.57,1601247773.0
5.26,-0.76,mumford,gh,75.54,90.0,12.0,13.71,1601247773.0
-0.91,122.88,biak,id,77.86,78.0,75.0,7.81,1601247774.0
-29.04,24.6,ritchie,za,50.0,21.0,0.0,6.93,1601247774.0
22.95,90.83,lakshmipur,bd,80.28,89.0,100.0,5.19,1601247774.0
-15.099552948225181,102.93882207296929,palabuhanratu,id,,,,,
36.37,6.61,constantine,dz,53.6,81.0,40.0,1.12,1601247775.0
32.57,76.13,chamba,in,63.93,37.0,0.0,7.4,1601247775.0
-26.53,153.1,coolum beach,au,69.01,69.0,34.0,5.01,1601247776.0
69.3,139.9,deputatskiy,ru,38.21,93.0,99.0,4.0,1601247776.0
36.76,-90.39,poplar bluff,us,80.6,54.0,40.0,6.93,1601247604.0
55.22,-119.44,beaverlodge,ca,59.0,30.0,75.0,14.99,1601247777.0
-9.66,120.26,waingapu,id,79.84,66.0,22.0,4.61,1601247777.0
14.35,-3.61,bandiagara,ml,81.63,54.0,85.0,1.9,1601247778.0
13.07,-59.53,oistins,bb,82.4,83.0,20.0,9.17,1601247778.0
70.02,135.6,ust-kuyga,ru,36.64,90.0,95.0,1.52,1601247778.0
7.71,81.69,batticaloa,lk,78.75,82.0,83.0,4.16,1601247779.0
47.98,3.4,joigny,fr,54.0,97.0,98.0,3.02,1601247779.0
46.82,-64.07,alberton,ca,66.33,78.0,98.0,16.64,1601247780.0
1,-52,amapa,br,73.36,92.0,80.0,3.4,1601247780.0
6.62,73.07,kulhudhuffushi,mv,81.21,77.0,2.0,6.46,1601247781.0
33.166239719054715,61.3527580489675,anar darreh,af,,,,,
9.84,-83.87,paraiso,mx,69.8,83.0,90.0,8.05,1601247781.0
51.23,-58.65,saint-augustin,ca,54.32,93.0,100.0,10.47,1601247583.0
5.502295651327358,-84.48907839634845,burica,pa,,,,,
2.67,72.89,kudahuvadhoo,mv,81.82,71.0,10.0,3.42,1601247782.0
45.34595982317697,59.25190170841506,karauzyak,uz,,,,,
55.74,-97.86,thompson,ca,44.6,87.0,90.0,9.17,1601247744.0
-37.53274266387284,34.90249540365693,umzimvubu,za,,,,,
-23.65,-70.4,antofagasta,cl,59.0,72.0,40.0,17.22,1601247617.0
-46.13,167.68,tuatapere,nz,37.99,96.0,100.0,1.01,1601247783.0
68.05,39.51,ostrovnoy,ru,39.85,83.0,8.0,9.17,1601247783.0
-0.72,8.78,port-gentil,ga,78.8,74.0,40.0,11.41,1601247784.0
43.37,-124.22,coos bay,us,77.0,64.0,1.0,21.92,1601247784.0
-36.78,-59.86,azul,ar,53.01,76.0,88.0,4.0,1601247499.0
35.54,-100.96,pampa,us,69.8,30.0,90.0,29.97,1601247785.0
-9.01,-35.22,maragogi,br,75.87,90.0,100.0,9.35,1601247656.0
43.32,129.76,wangqing,cn,55.85,83.0,18.0,2.06,1601247785.0
41.44,-72.01,ledyard,us,72.0,94.0,90.0,5.82,1601247786.0
-9.11,124.89,atambua,id,76.91,67.0,7.0,4.23,1601247786.0
9.3,13.4,garoua,cm,73.2,92.0,71.0,2.48,1601247787.0
45.28,-92.99,forest lake,us,59.0,83.0,75.0,12.48,1601247787.0
53.05,158.65,petropavlovsk-kamchatskiy,ru,39.2,80.0,75.0,4.47,1601247787.0
49.78,-74.85,chapais,ca,64.4,88.0,90.0,14.99,1601247762.0
64.5,-165.41,nome,us,46.4,63.0,1.0,9.17,1601247788.0
-16.35,-53.76,guiratinga,br,89.87,26.0,51.0,1.21,1601247788.0
55.1,-105.28,la ronge,ca,50.0,61.0,90.0,13.87,1601247789.0
-11.38,43.28,mitsamiouli,km,76.44,78.0,53.0,12.64,1601247789.0
46.43,26.4,asau,tv,46.0,91.0,2.0,2.59,1601247790.0
54.43,31.9,sobolevo,ru,53.58,88.0,100.0,14.32,1601247790.0
50.28,113.29,aksha,ru,35.37,84.0,12.0,8.12,1601247790.0
-26.597493295012917,19.87194817382317,bokspits,bw,,,,,
36.82,21.7,methoni,gr,72.0,77.0,20.0,10.42,1601247791.0
68.22,-135.01,aklavik,ca,35.6,93.0,75.0,2.24,1601247791.0
-22.09,-70.2,tocopilla,cl,61.56,63.0,20.0,8.93,1601247792.0
49.22,143.12,poronaysk,ru,48.56,71.0,100.0,7.36,1601247792.0
-22.28,166.46,noumea,nc,75.2,73.0,40.0,12.75,1601247605.0
-5.9,22.42,kananga,cd,71.28,86.0,83.0,1.57,1601247792.0
-18.19,31.55,marondera,zw,60.42,69.0,50.0,3.09,1601247793.0
61.17,73.17,barsovo,ru,48.2,100.0,88.0,6.71,1601247793.0
50.23,-63.6,havre-saint-pierre,ca,53.6,87.0,90.0,4.7,1601247793.0
16.18,75.7,bagalkot,in,70.54,92.0,71.0,7.78,1601247613.0
52.8,104.75,ust-ordynskiy,ru,39.2,100.0,40.0,5.59,1601247794.0
59.58,151.28,ola,ru,46.08,86.0,81.0,2.1,1601247794.0
55.64,69.23,kazanskoye,ru,45.64,89.0,53.0,5.17,1601247795.0
18.8,110.4,wanning,cn,79.75,87.0,100.0,4.21,1601247795.0
53.8,64.15,borovskoy,kz,46.71,80.0,0.0,4.32,1601247796.0
60.4,-1.35,brae,gb,48.2,93.0,100.0,4.7,1601247796.0
37.15,122.38,yatou,cn,64.45,77.0,86.0,0.81,1601247796.0
13.35,-15.75,nioro,ml,76.42,95.0,95.0,6.31,1601247797.0
6.5,4.78,okitipupa,ng,72.81,97.0,29.0,2.51,1601247797.0
56.35,53.12,kiyasovo,ru,41.0,90.0,8.0,5.03,1601247797.0
-42.77,-65.04,puerto madryn,ar,53.8,47.0,0.0,8.41,1601247650.0
44.90895662880038,61.789779321500276,kazalinsk,kz,,,,,
-19.06,-169.92,alofi,nu,78.8,74.0,75.0,23.04,1601247798.0
16.28,101.95,kaset sombun,th,75.22,92.0,100.0,0.74,1601247799.0
21.28,-88.27,panaba,mx,88.02,62.0,80.0,10.94,1601247799.0
-10.98,-66.1,riberalta,bo,78.08,74.0,79.0,1.01,1601247799.0
-31.43,152.92,port macquarie,au,64.99,50.0,32.0,1.99,1601247800.0
-6.22,155.63,kieta,pg,77.5,89.0,100.0,6.87,1601247800.0
42.8,93.45,hami,cn,55.89,34.0,83.0,0.96,1601247800.0
51.89737801899744,56.911517157225404,dubenskiy,ru,,,,,
63.87,11.3,straumen,no,55.99,82.0,71.0,5.82,1601247801.0
11.67,92.75,port blair,in,81.43,82.0,94.0,8.59,1601247691.0
39.05,-27.98,lagoa,pt,70.45,88.0,57.0,6.38,1601247802.0
-9.41,-40.5,juazeiro,br,83.3,31.0,100.0,8.28,1601247670.0
47.97,80.44,ayagoz,kz,34.25,90.0,0.0,9.91,1601247802.0
42.97,-82.42,port huron,us,75.2,64.0,90.0,8.05,1601247763.0
38.8,-9.45,colares,pt,63.0,89.0,0.0,19.98,1601247803.0
42.95,72.76,lugovoy,ru,44.08,57.0,0.0,3.15,1601247803.0
59.65,67.41,kondinskoye,ru,47.86,95.0,37.0,6.82,1601247803.0
65.28,-126.83,norman wells,ca,53.6,62.0,75.0,10.29,1601247804.0
22.89,-109.91,cabo san lucas,mx,91.4,74.0,20.0,14.99,1601247804.0
